"provider"	"name"	"street"	"city"	"state"	"zip"	"country"	"latitude"	"longitude"	"categories"	"phone"	"hours_monday"	"hours_tuesday"	"hours_wednesday"	"hours_thursday"	"hours_friday"	"hours_saturday"	"hours_sunday"	"name_score"	"distance"	"index"	"score.name_score"	"score.distance_score"	"score.phone_score"	"score.category_score"	"score.sum_score"	"score.matching"
																										
"Google"	"Fidelli Kitchen"	"1616 Camden Rd #100"	"Charlotte"	"NC"	"28203"	"USA"	"35.2142026"	"-80.8576802"	"restaurants, nightlife"	"+17045948000"	""	""	""	""	""	""	""	100	22.891091576	  3	50.0	10	10	20	 90.0	MATCHED
"Facebook"	"Fidelli Kitchen"	"1616 Camden Rd Ste 100"	"Charlotte"	"NC"	"28203"	"United States"	"35.214091422"	"-80.857819407"	"Wine Bar"	"7045948000"	"11:00-22:00"	"11:00-22:00"	"11:00-22:00"	"11:00-22:00"	"11:00-23:00"	"11:00-23:00"	"16:00-22:00"	100	39.989914345	  3	50.0	 5	10	20	 85.0	MATCHED
"Yelp"	"Fidelli Kitchen"	"1616 Camden Rd, Ste 100"	"Charlotte"	"NC"	"28203"	""	"35.2142874097"	"-80.8574509097"	"Bars, Italian, Restaurants, Wine Bars, Nightlife"	"7045948000, +17045948000"	"11:0-22:0"	"11:0-22:0"	"11:0-22:0"	"11:0-22:0"	"11:0-23:0"	"11:0-23:0"	"11:0-22:0"	  0	 0.000000000	  3	 0.0	 0	 0	 0	  0.0	
"Google"	"Claddagh Irish Pub"	"407 Cinema Dr"	"Pittsburgh"	"PA"	"15203"	"USA"	"40.4279465"	"-79.9647801"	"nightlife, restaurants"	"+14123814800"	"11:00 AM – 12:00 AM"	"11:00 AM – 1:00 AM"	"11:00 AM – 1:00 AM"	"11:00 AM – 1:00 AM"	"11:00 AM – 2:00 AM"	"11:00 AM – 2:00 AM"	"11:00 AM – 1:00 AM"	100	40.473960208	  4	50.0	 2	10	20	 82.0	MATCHED
"Facebook"	"Claddagh Irish Pub"	"407  Canoe Way"	"Pittsburgh"	"PA"	"15224"	"United States"	"40.428042195042"	"-79.964668281573"	"Bar"	"4123814800"	"11:00-00:00"	"11:00-00:00"	"11:00-00:00"	"11:00-00:00"	"11:00-01:00"	"11:00-01:00"	"11:00-22:00"	100	51.952836087	  4	50.0	 0	10	20	 80.0	MATCHED
"Yelp"	"Claddagh Irish Pub"	"407 Cinema Dr"	"Pittsburgh"	"PA"	"15203"	""	"40.4279062791"	"-79.9652548"	"Pubs, Nightlife, Restaurants, Bars, Irish"	"4123814800, +14123814800"	"11:0-0:0"	"11:0-0:0"	"11:0-0:0"	"11:0-0:0"	"11:0-2:0"	"11:0-2:0"	"11:0-0:0"	  0	 0.000000000	  4	 0.0	 0	 0	 0	  0.0	
"Google"	"The Original Mattress Factory"	"15 Freeport Rd"	"Pittsburgh"	"PA"	"15215"	"USA"	"40.4922444"	"-79.9088296"	"shopping, shopping, shopping"	"+14127824700"	"9:00 AM – 9:00 PM"	"9:00 AM – 9:00 PM"	"9:00 AM – 9:00 PM"	"9:00 AM – 9:00 PM"	"9:00 AM – 9:00 PM"	"10:00 AM – 5:00 PM"	"12:00 – 5:00 PM"	100	53.885898618	 36	50.0	 0	10	20	 80.0	MATCHED
"Facebook"	"The Original Mattress Factory"	"15 Freeport Rd"	"Pittsburgh"	"PA"	"15215-2905"	"United States"	"40.49255"	"-79.90894"	"Mattress Store"	"4127824700"	"09:00-21:00"	"09:00-21:00"	"09:00-21:00"	"09:00-21:00"	"09:00-21:00"	"10:00-17:00"	"12:00-17:00"	100	19.920073488	 36	50.0	15	10	 0	 75.0	MATCHED
"Yelp"	"The Original Mattress Factory"	"15 Freeport Rd, Ste 500"	"Pittsburgh"	"PA"	"15215"	""	"40.4926841"	"-79.9090958"	"Furniture Stores, Shopping, Home & Garden, Mattresses"	"4127824700, +14127824700"	"9:0-21:0"	"9:0-21:0"	"9:0-21:0"	"9:0-21:0"	"9:0-21:0"	"10:0-17:0"	"9:0-21:0"	  0	 0.000000000	 36	 0.0	 0	 0	 0	  0.0	
"Google"	"Château Kabab"	"2140 Rue Guy"	"Montréal"	"QC"	"H3H"	"Canada"	"45.4958857"	"-73.5801559"	"restaurants"	"+15149321114"	"11:00 AM – 12:00 AM"	"11:00 AM – 12:00 AM"	"11:00 AM – 12:00 AM"	"11:00 AM – 12:00 AM"	"11:00 AM – 12:00 AM"	"11:00 AM – 12:00 AM"	"11:00 AM – 12:00 AM"	100	10.309618902	 67	50.0	15	10	20	 95.0	MATCHED
"Facebook"	"Château Kabab"	"2140, rue Guy"	"Montreal"	"QC"	"H3H 2L8"	"Canada"	"45.49607"	"-73.58068"	"Barbecue Restaurant, Middle Eastern Restaurant, Mediterranean Restaurant"	"149321114"	""	""	""	""	""	""	""	100	38.519859063	 67	50.0	 5	 0	20	 75.0	MATCHED
"Yelp"	"Château Kabab"	"2140 Rue Guy"	"Montréal"	"QC"	"H3H 2L8"	""	"45.4958633"	"-73.5802841"	"Halal, Middle Eastern, Restaurants, Kebab, Persian/Iranian"	"5149321114, +15149321114"	"11:0-0:0"	"11:0-0:0"	"11:0-0:0"	"11:0-0:0"	"11:0-0:0"	"11:0-0:0"	"11:0-0:0"	  0	 0.000000000	 67	 0.0	 0	 0	 0	  0.0	
"Google"	"Thyme Maternity"	"1900 Eglinton Ave E"	"Scarborough"	"ON"	"M1L"	"Canada"	"43.728053"	"-79.294142"	"shopping, shopping"	"+14167518038"	"10:00 AM – 9:00 PM"	"10:00 AM – 9:00 PM"	"10:00 AM – 9:00 PM"	"10:00 AM – 9:00 PM"	"10:00 AM – 9:00 PM"	"10:00 AM – 6:00 PM"	"11:00 AM – 5:00 PM"	100	86.611963317	 88	50.0	-5	10	20	 75.0	MATCHED
"Facebook"	"Thyme Maternity"	"1900 Eglinton Ave. E."	"Toronto"	"ON"	"M1L2L9"	"Canada"	"43.727339920281"	"-79.293426275253"	"Women's Clothing Store"	"167518038"	"10:00-21:00"	"10:00-21:00"	"10:00-21:00"	"10:00-21:00"	"10:00-21:00"	"10:00-18:00"	"11:00-17:00"	100	42.990993287	 88	50.0	 2	 0	20	 72.0	MATCHED
"Yelp"	"Thyme Maternity"	"1900 Eglinton Avenue E"	"Scarborough"	"ON"	"M1L 2L9"	""	"43.7272867"	"-79.2939556"	"Shopping, Fashion, Maternity Wear, Accessories, Women's Clothing"	"4167518038, +14167518038"	"10:0-21:0"	"10:0-21:0"	"10:0-21:0"	"10:0-21:0"	"10:0-21:0"	"10:0-18:0"	"10:0-21:0"	  0	 0.000000000	 88	 0.0	 0	 0	 0	  0.0	
"Google"	"The Cathedral of Saint John the Evangelist"	"1007 Superior Ave"	"Cleveland"	"OH"	"44114"	"USA"	"41.5030193"	"-81.6881019"	"religiousorgs, religiousorgs"	"+12167716666"	""	""	""	""	""	""	""	 91	 7.510010515	131	45.5	20	10	20	 95.5	MATCHED
"Facebook"	"Cathedral of St. John the Evangelist"	"1007 Superior Ave E"	"Cleveland"	"OH"	"44114"	"United States"	"41.5028"	"-81.6884"	"Catholic Church, Landmark & Historical Place"	"2167716666"	""	""	""	""	""	""	""	100	36.260852133	131	50.0	 5	10	20	 85.0	MATCHED
"Yelp"	"Cathedral of St. John the Evangelist"	"1007 Superior Ave E"	"Cleveland"	"OH"	"44114"	""	"41.5029754"	"-81.6880335"	"Religious Organizations, Churches"	"2167716666, +12167716666"	"6:0-18:0"	"6:0-18:0"	"6:0-18:0"	"6:0-18:0"	"6:0-17:0"	"6:0-18:0"	"6:0-18:0"	  0	 0.000000000	131	 0.0	 0	 0	 0	  0.0	
"Google"	"Jetsun's Juicyburger"	"74 Crockford Blvd"	"Scarborough"	"ON"	"M1R"	"Canada"	"43.727165"	"-79.293247"	"restaurants"	"+14167515387"	""	""	""	""	""	""	""	100	57.213154775	139	50.0	 0	10	20	 80.0	MATCHED
"Facebook"	"Jetsuns Juicyburger"	"1900 Eglinton Ave E"	"Toronto"	"ON"	"M1L 2L9"	"Canada"	"43.727001776215"	"-79.293010710916"	"Fast Food Restaurant, Burger Restaurant"	"4167515387"	""	""	""	""	""	""	""	 92	42.328632883	139	46.0	 2	10	20	 78.0	MATCHED
"Yelp"	"Jetsun's Juicyburger"	"1900 Eglinton Avenue E"	"Toronto"	"ON"	"M1L 2L9"	""	"43.7271654762"	"-79.2925357819"	"Diners, Breakfast & Brunch, Restaurants, Burgers"	"4167515387, +14167515387"	"11:0-21:0"	"11:0-21:0"	"11:0-21:0"	"11:0-21:0"	"11:0-22:0"	"11:0-22:0"	"11:0-21:0"	  0	 0.000000000	139	 0.0	 0	 0	 0	  0.0	
"Google"	"The Asbury"	"235 N Tryon St"	"Charlotte"	"NC"	"28202"	"USA"	"35.2287553"	"-80.8411155"	"nightlife, restaurants"	"+17043421193"	"11:00 AM – 10:00 PM"	"11:00 AM – 10:00 PM"	"11:00 AM – 10:00 PM"	"11:00 AM – 10:00 PM"	"11:00 AM – 10:00 PM"	"9:00 AM – 10:00 PM"	"9:00 AM – 10:00 PM"	100	19.024726724	162	50.0	15	10	20	 95.0	MATCHED
"Facebook"	"The Asbury"	"235 N Tryon St"	"Charlotte"	"NC"	"28202"	"United States"	"35.228656529668"	"-80.840994436733"	"American Restaurant, New American Restaurant, Southern Restaurant"	"7043421193"	"11:00-22:00"	"11:00-22:00"	"11:00-22:00"	"11:00-22:00"	"11:00-22:00"	"09:00-22:00"	"09:00-22:00"	100	33.824638393	162	50.0	 5	10	20	 85.0	MATCHED
"Yelp"	"The Asbury"	"235 N Tryon St"	"Charlotte"	"NC"	"28202"	""	"35.228915"	"-80.84119"	"American (Traditional), Restaurants, American (New), Southern, Breakfast & Brunch"	"7043421193, +17043421193"	"11:0-22:0"	"11:0-22:0"	"11:0-22:0"	"11:0-22:0"	"11:0-22:0"	"9:0-22:0"	"11:0-22:0"	  0	 0.000000000	162	 0.0	 0	 0	 0	  0.0	
"Google"	"TD Canada Trust"	"312 Sheppard Ave E"	"North York"	"ON"	"M2N"	"Canada"	"43.7648512"	"-79.3969302"	"financialservices, financialservices, financialservices"	"+14162245512"	"8:00 AM – 8:00 PM"	"8:00 AM – 8:00 PM"	"8:00 AM – 8:00 PM"	"8:00 AM – 8:00 PM"	"8:00 AM – 8:00 PM"	"8:00 AM – 4:00 PM"	"11:00 AM – 4:00 PM"	100	26.577421189	182	50.0	10	10	20	 90.0	MATCHED
"Facebook"	"TD Canada Trust"	"312 Sheppard Ave East"	"Toronto"	"ON"	"M2N 3B4"	"Canada"	"43.764877946799"	"-79.396820411642"	"Bank, Automated Teller Machine (ATM), Financial Service"	"4162245512"	"08:00-20:00"	"08:00-20:00"	"08:00-20:00"	"08:00-20:00"	"08:00-20:00"	"08:00-16:00"	"11:00-16:00"	100	30.997877263	182	50.0	 5	10	20	 85.0	MATCHED
"Yelp"	"TD Canada Trust"	"312 Sheppard Avenue E"	"North York"	"ON"	"M2N 3B4"	""	"43.7646125"	"-79.3969369"	"Banks & Credit Unions, Financial Services"	"4162245512, +14162245512"	"8:0-20:0"	"8:0-20:0"	"8:0-20:0"	"8:0-20:0"	"8:0-20:0"	"8:0-16:0"	"8:0-20:0"	  0	 0.000000000	182	 0.0	 0	 0	 0	  0.0	
"Google"	"Ginkgo Café & Bar"	"UQAM - PavilionJA DesèveRue Sainte-Catherine E #308"	"Montréal"	"QC"	"H2X"	"Canada"	"45.5127967"	"-73.5610991"	"restaurants, nightlife, restaurants"	"+15143794449"	"7:00 AM – 12:00 AM"	"7:00 AM – 12:00 AM"	"7:00 AM – 12:00 AM"	"7:00 AM – 1:00 AM"	"7:00 AM – 1:00 AM"	"7:00 AM – 1:00 AM"	"7:00 AM – 3:00 PM"	 60	 0.007397785	199	30.0	20	10	20	 80.0	MATCHED
"Facebook"	"Ginkgo"	"308 rue Ste-Catherine est"	"Montreal"	"QC"	"H2X 1L7"	"Canada"	"45.51279"	"-73.56047"	"Restaurant, Pub"	"5143794449"	"07:00-00:00"	"07:00-00:00"	"07:00-00:00"	"07:00-01:00"	"07:00-03:00"	"07:00-03:00"	"07:00-15:00"	100	49.073982105	199	50.0	 2	10	20	 82.0	MATCHED
"Yelp"	"Ginkgo"	"308 Rue Sainte-Catherine E"	"Montréal"	"QC"	"H2X 1L7"	""	"45.5127967384"	"-73.5610990226"	"Coffee & Tea, Salad, Nightlife, Food, Tapas Bars, Bars, Breakfast & Brunch, Restaurants, Creperies"	"5143794449, +15143794449"	"7:0-0:0"	"7:0-0:0"	"7:0-0:0"	"7:0-0:0"	"7:0-3:0"	"7:0-3:0"	"7:0-0:0"	  0	 0.000000000	199	 0.0	 0	 0	 0	  0.0	
"Google"	"Espresso Royale Cafe"	"224 State St"	"Madison"	"WI"	"53703"	"USA"	"43.0749507"	"-89.3890865"	"restaurants, shopping"	"+16082590800"	"7:00 AM – 9:00 PM"	"7:00 AM – 9:00 PM"	"7:00 AM – 9:00 PM"	"7:00 AM – 9:00 PM"	"7:00 AM – 9:00 PM"	"7:00 AM – 9:00 PM"	"8:00 AM – 9:00 PM"	 98	56.370677539	211	49.0	 0	10	20	 79.0	MATCHED
"Facebook"	"Espresso Royale Coffee"	"Upper State, 224 State St"	"Madison"	"WI"	"53703-2215"	"United States"	"43.0749799"	"-89.38905"	"Coffee Shop, Restaurant, Internet Cafe"	"6082590800"	"07:00-21:00"	"07:00-21:00"	"07:00-21:00"	"07:00-21:00"	"07:00-21:00"	"07:00-21:00"	"08:00-21:00"	 93	53.711637787	211	46.5	 0	10	20	 76.5	MATCHED
"Yelp"	"Espresso Royale Caffe"	"224 State St"	"Madison"	"WI"	"53703"	""	"43.0749204"	"-89.3883945"	"Sandwiches, Food, Coffee & Tea, Restaurants, Internet Cafes"	"6082590800, +16082590800"	"7:0-22:0"	"7:0-22:0"	"7:0-22:0"	"7:0-22:0"	"7:0-22:0"	"7:0-22:0"	"7:0-22:0"	  0	 0.000000000	211	 0.0	 0	 0	 0	  0.0	
"Google"	"Scarlett Vapors & Smoke Shop"	"1725 E Warm Springs Rd #12"	"Las Vegas"	"NV"	"89119"	"USA"	"36.0568125"	"-115.1285665"	"shopping"	"+17027500553"	"10:00 AM – 10:00 PM"	"10:00 AM – 10:00 PM"	"10:00 AM – 10:00 PM"	"10:00 AM – 10:00 PM"	"10:00 AM – 10:00 PM"	"10:00 AM – 10:00 PM"	"10:00 AM – 10:00 PM"	100	37.158242889	246	50.0	 5	10	20	 85.0	MATCHED
"Facebook"	"Scarlett Vapors & Smoke Shop"	"1725 E Warm Springs Rd, Ste 12"	"Las Vegas"	"NV"	"89119"	"United States"	"36.057251"	"-115.1289215"	"Gift Shop, Tobacco Store"	"7027500553"	"10:00-22:00"	"10:00-22:00"	"10:00-22:00"	"10:00-22:00"	"10:00-22:00"	"10:00-22:00"	"10:00-22:00"	100	30.495011798	246	50.0	 5	10	20	 85.0	MATCHED
"Yelp"	"Scarlett Vapors & Smoke Shop"	"1725 E Warm Springs Rd, Ste 12"	"Las Vegas"	"NV"	"89119"	""	"36.0571445"	"-115.1286093"	"Wholesale Stores, Head Shops, Shopping, Vape Shops, Adult, Tobacco Shops"	"7027500553, +17027500553"	"10:0-22:0"	"10:0-22:0"	"10:0-22:0"	"10:0-22:0"	"10:0-22:0"	"10:0-22:0"	"10:0-22:0"	  0	 0.000000000	246	 0.0	 0	 0	 0	  0.0	
"Google"	"Tiger Wok & Ramen"	"3500 S Las Vegas Blvd"	"Las Vegas"	"NV"	"89109"	"USA"	"36.1176787"	"-115.1760124"	"restaurants"	""	"9:00 AM – 1:00 AM"	"9:00 AM – 1:00 AM"	"9:00 AM – 1:00 AM"	"9:00 AM – 1:00 AM"	"9:00 AM – 1:00 AM"	"9:00 AM – 1:00 AM"	"9:00 AM – 1:00 AM"	100	62.502730287	247	50.0	 0	 0	20	 70.0	MATCHED
"Facebook"	"Tiger Wok & Ramen"	"3570 Las Vegas Blvd S"	"Las Vegas"	"NV"	"89109"	"United States"	"36.118126"	"-115.17578"	"Chinese Restaurant"		"11:00-01:00"	"11:00-01:00"	"11:00-01:00"	"11:00-01:00"	"11:00-01:00"	"11:00-01:00"	"11:00-01:00"	100	 9.206419604	247	50.0	20	 0	20	 90.0	MATCHED
"Yelp"	"Tiger Wok & Ramen"	"3570 South Las Vegas Blvd"	"Las Vegas"	"NV"	"89109"	""	"36.1181822579"	"-115.175704957"	"Restaurants, Ramen, Chinese, Japanese"	"8887720955, +18887720955"	"11:0-1:0"	"11:0-1:0"	"11:0-1:0"	"11:0-1:0"	"11:0-1:0"	"11:0-1:0"	"11:0-1:0"	  0	 0.000000000	247	 0.0	 0	 0	 0	  0.0	
"Google"	"Queen's Quay Terminal"	"Central Waterfront"	"Toronto"	"ON"	"M5J"	"Canada"	"43.6387919"	"-79.3802851"	"shopping"	""	""	""	""	""	""	""	""	100	38.110836628	255	50.0	 5	 0	20	 75.0	MATCHED
"Facebook"	"Queen's Quay Terminal"	"207 Queens Quay West"	"Toronto"	"ON"	"M5J 1A7"	"Canada"	"43.63877"	"-79.3806"	"Shopping Mall"	"14162030510"	"10:00-18:00"	"10:00-18:00"	"10:00-18:00"	"10:00-18:00"	"10:00-18:00"	"10:00-18:00"	"10:00-18:00"	100	12.656854977	255	50.0	15	 0	20	 85.0	MATCHED
"Yelp"	"Queen's Quay Terminal"	"207 Queens Quay W"	"Toronto"	"ON"	"M5J 1A7"	""	"43.638769"	"-79.3807571"	"Shopping, Shopping Centers"	"4162033269, +14162033269"	"10:0-18:0"	"10:0-18:0"	"10:0-18:0"	"10:0-18:0"	"10:0-18:0"	"10:0-18:0"	"10:0-18:0"	  0	 0.000000000	255	 0.0	 0	 0	 0	  0.0	
"Google"	"My Thai"	"3024 W Liberty Ave"	"Pittsburgh"	"PA"	"15216"	"USA"	"40.392772"	"-80.037386"	"nightlife, restaurants"	"+14122077507"	"11:30 AM – 10:00 PM"	"11:30 AM – 10:00 PM"	"11:30 AM – 10:00 PM"	"11:30 AM – 10:00 PM"	"11:30 AM – 10:00 PM"	"11:30 AM – 10:00 PM"	"11:30 AM – 9:00 PM"	100	42.192427306	263	50.0	 2	10	20	 82.0	MATCHED
"Facebook"	"My Thai"	"3024 W Liberty Ave"	"Pittsburgh"	"PA"	"15216"	"United States"	"40.39287"	"-80.03746"	"Thai Restaurant"	"4122077507"	"11:30-22:00"	"11:30-22:00"	"11:30-22:00"	"11:30-22:00"	"11:30-22:00"	"11:30-22:00"	"11:30-21:00"	100	40.671319199	263	50.0	 2	10	20	 82.0	MATCHED
"Yelp"	"My Thai"	"3024 W Liberty Ave"	"Pittsburgh"	"PA"	"15216"	""	"40.3930420493"	"-80.0370368072"	"Asian Fusion, Restaurants, Noodles, Salad, Thai"	"4122077507, +14122077507"	"11:30-22:0"	"11:30-22:0"	"11:30-22:0"	"11:30-22:0"	"11:30-22:0"	"11:30-22:0"	"11:30-22:0"	  0	 0.000000000	263	 0.0	 0	 0	 0	  0.0	
"Google"	"Rachel's Kitchen"	"7010 N Durango Dr #140"	"Las Vegas"	"NV"	"89149"	"USA"	"36.288362"	"-115.286582"	"restaurants, restaurants"	"+17028025000"	"7:00 AM – 9:00 PM"	"7:00 AM – 9:00 PM"	"7:00 AM – 9:00 PM"	"7:00 AM – 9:00 PM"	"7:00 AM – 9:00 PM"	"7:00 AM – 9:00 PM"	"7:00 AM – 9:00 PM"	100	 7.320129804	272	50.0	20	10	20	100.0	MATCHED
"Facebook"	"Rachel's Kitchen"	"7010 N Durango DR"	"Las Vegas"	"NV"	"89149"	"United States"	"36.28871"	"-115.28701"	"American Restaurant"	"7028025000"	"07:00-21:00"	"07:00-21:00"	"07:00-21:00"	"07:00-21:00"	"07:00-21:00"	"07:00-21:00"	"07:00-21:00"	100	52.273151526	272	50.0	 0	10	20	 80.0	MATCHED
"Yelp"	"Rachel's Kitchen"	"7010 N Durango Dr, Ste 140"	"Las Vegas"	"NV"	"89149"	""	"36.2884223309"	"-115.286549547"	"Food, American (New), Breakfast & Brunch, Restaurants, Juice Bars & Smoothies, Sandwiches"	"7028025000, +17028025000"	"7:0-21:0"	"7:0-21:0"	"7:0-21:0"	"7:0-21:0"	"7:0-21:0"	"7:0-21:0"	"7:0-21:0"	  0	 0.000000000	272	 0.0	 0	 0	 0	  0.0	
"Google"	"24 Nail"	"4075 S Durango Dr #112"	"Las Vegas"	"NV"	"89147"	"USA"	"36.115379"	"-115.280643"	"beautysvc"	"+17022835305"	"9:00 AM – 7:00 PM"	"9:00 AM – 7:00 PM"	"9:00 AM – 7:00 PM"	"9:00 AM – 7:00 PM"	"9:00 AM – 7:00 PM"	"9:00 AM – 7:00 PM"	"9:00 AM – 5:00 PM"	100	14.117228899	274	50.0	15	10	20	 95.0	MATCHED
"Facebook"	"24 Nail"	"4075 S Durango Dr, Ste 112"	"Las Vegas"	"NV"	"89147"	"United States"	"36.115399819978"	"-115.28035802985"	"Nail Salon, Spa"	"7022835305"	"09:30-19:00"	"09:30-19:00"	"09:30-19:00"	"09:30-19:00"	"09:30-19:00"	"09:30-17:00"	"NA-NA"	100	38.842870477	274	50.0	 5	10	20	 85.0	MATCHED
"Yelp"	"24 Nail"	"4075 S Durango Dr, Ste 112"	"Las Vegas"	"NV"	"89147"	""	"36.1153115"	"-115.2807759"	"Beauty & Spas, Eyelash Service, Nail Salons, Hair Removal, Waxing"	"7022835305, +17022835305"	"9:30-21:0"	"9:0-19:0"	"9:0-19:0"	"9:0-19:0"	"9:0-19:0"	"9:0-19:0"	"9:30-21:0"	  0	 0.000000000	274	 0.0	 0	 0	 0	  0.0	
"Google"	"Mortimer's Cafe and Pub"	"210 East Trade Street C 148"	"Charlotte"	"NC"	"28202"	"USA"	"35.225179"	"-80.842265"	"nightlife, restaurants"	"+17046880366"	"11:00 AM – 2:00 AM"	"11:00 AM – 2:00 AM"	"11:00 AM – 2:00 AM"	"11:00 AM – 2:00 AM"	"11:00 AM – 2:00 AM"	"11:00 AM – 2:00 AM"	"11:00 AM – 2:00 AM"	100	35.268857136	281	50.0	 5	10	20	 85.0	MATCHED
"Facebook"	"Mortimers Cafe and Pub"	"210 E Trade St Ste C148"	"Charlotte"	"NC"	"28202"	"United States"	"35.22538"	"-80.84201"	"American Restaurant, Pub"	"7046880366"	"11:00-02:00"	"11:00-02:00"	"11:00-02:00"	"11:00-02:00"	"11:00-02:00"	"11:00-02:00"	"11:00-02:00"	 93	 4.147625079	281	46.5	20	10	20	 96.5	MATCHED
"Yelp"	"Mortimer's Cafe and Pub"	"210 E Trade St, Ste 148-C"	"Charlotte"	"NC"	"28202"	""	"35.2253792"	"-80.8419644"	"American (Traditional), Restaurants, Pubs, Nightlife, Bars, Wraps"	"7046880366, +17046880366"	"11:0-2:0"	"11:0-2:0"	"11:0-2:0"	"11:0-2:0"	"11:0-2:0"	"11:0-2:0"	"11:0-2:0"	  0	 0.000000000	281	 0.0	 0	 0	 0	  0.0	
"Google"	"Maria's Taco Shop"	"Las Vegas"	"Las Vegas"	"NV"	"89123"	"USA"	"36.0556419"	"-115.1174508"	"restaurants"	"+17024071919"	"12:00 AM – 7:30 PM, 8:00 PM – 12:00 AM"	"12:00 AM – 7:30 PM, 8:00 PM – 12:00 AM"	"12:00 AM – 7:30 PM, 8:00 PM – 12:00 AM"	"12:00 AM – 7:30 PM, 8:00 PM – 12:00 AM"	"12:00 AM – 7:30 PM, 8:00 PM – 12:00 AM"	"12:00 AM – 7:30 PM, 8:00 PM – 12:00 AM"	"12:00 AM – 7:30 PM, 8:00 PM – 12:00 AM"	 97	35.297138302	283	48.5	 5	10	20	 83.5	MATCHED
"Facebook"	"Maria's Taco Shop"	"7380 S Eastern Ave Ste 118"	"Las Vegas"	"NV"	"89123"	"United States"	"36.055678579941"	"-115.11741322185"	"Mexican Restaurant"	"7024071919"	""	""	""	""	""	""	""	 97	30.863658746	283	48.5	 5	10	20	 83.5	MATCHED
"Yelp"	"Marias Taco Shop"	"7380 S Eastern Ave, Ste 118"	"Las Vegas"	"NV"	"89123"	""	"36.055748"	"-115.1170812"	"Restaurants, Mexican"	"7024071919, +17024071919"	"7:0-20:0"	"7:0-20:0"	"7:0-20:0"	"7:0-20:0"	"7:30-20:0"	"7:30-20:0"	"7:0-20:0"	  0	 0.000000000	283	 0.0	 0	 0	 0	  0.0	
"Google"	"Subway"	"2812 W Sugar Creek Rd"	"Charlotte"	"NC"	"28262"	"USA"	"35.3018356"	"-80.8017188"	"restaurants"	"+17045990050"	"9:00 AM – 9:00 PM"	"9:00 AM – 9:00 PM"	"9:00 AM – 9:00 PM"	"9:00 AM – 9:00 PM"	"9:00 AM – 9:00 PM"	"9:00 AM – 9:00 PM"	"9:00 AM – 9:00 PM"	100	21.948011002	284	50.0	10	10	20	 90.0	MATCHED
"Facebook"	"Subway"	"2812 W Sugar Creek Rd"	"Charlotte"	"NC"	"28262"	"United States"	"35.301489225002"	"-80.801579304941"	"Fast Food Restaurant"	"7045990050"	""	""	""	""	""	""	""	100	44.572576827	284	50.0	 2	10	20	 82.0	MATCHED
"Yelp"	"Subway"	"2812 W Sugar Creek Rd"	"Charlotte"	"NC"	"28262"	""	"35.301882"	"-80.801484"	"Fast Food, Restaurants, Sandwiches, Food"	"7045990050, +17045990050"	"7:0-21:30"	"7:0-21:30"	"7:0-21:30"	"7:0-21:30"	"7:0-21:30"	"7:0-21:30"	"7:0-21:30"	  0	 0.000000000	284	 0.0	 0	 0	 0	  0.0	
"Google"	"Pizzaville"	"5651 Steeles Ave E #12"	"Scarborough"	"ON"	"M1V"	"Canada"	"43.8317208"	"-79.2663275"	"localservices, localservices, restaurants"	"+14167363636"	"11:00 AM – 11:30 PM"	"11:00 AM – 11:30 PM"	"11:00 AM – 11:30 PM"	"11:00 AM – 12:30 AM"	"11:00 AM – 1:30 AM"	"11:00 AM – 1:30 AM"	"11:30 AM – 11:30 PM"	100	 0.000000000	286	50.0	20	10	20	100.0	MATCHED
"Facebook"	"Pizzaville"	"5651 Steeles Ave. East UNIT 12"	"Toronto"	"ON"	"M1V 5P6"	"Canada"	"43.83218"	"-79.2667"	"Pizza Place"	"16.736.3636"	"11:00-23:30"	"11:00-23:30"	"11:00-23:30"	"11:00-00:30"	"11:00-01:30"	"11:00-01:30"	"11:30-23:30"	100	59.226855808	286	50.0	 0	 0	20	 70.0	MATCHED
"Yelp"	"Pizzaville"	"5651 Steeles Avenue E"	"Scarborough"	"ON"	"M1V 5P6"	""	"43.8317208"	"-79.2663275"	"Pizza, Italian, Restaurants"	"4167363636, +14167363636"	"11:0-23:30"	"11:0-23:30"	"11:0-23:30"	"11:0-0:30"	"11:0-1:30"	"11:0-1:30"	"11:0-23:30"	  0	 0.000000000	286	 0.0	 0	 0	 0	  0.0	
"Google"	"A Hot Rock Sauna Spa"	"8791 Woodbine Avenue"	"Markham"	"ON"	"L3R"	"Canada"	"43.8559154"	"-79.358331"	"beautysvc, health"	"+19056049337"	"10:00 AM – 10:00 PM"	"10:00 AM – 10:00 PM"	"10:00 AM – 10:00 PM"	"10:00 AM – 10:00 PM"	"10:00 AM – 10:00 PM"	"10:00 AM – 10:00 PM"	"10:00 AM – 10:00 PM"	100	22.410487906	288	50.0	10	10	20	 90.0	MATCHED
"Facebook"	"A Hot Rock Sauna Spa"	"8791 Woodbine Ave, Unit 206"	"Markham"	"ON"	"L3R0P4"	"Canada"	"43.85609"	"-79.35829"	"Health Spa, Massage Service"	"056049337"	"10:00-22:00"	"10:00-22:00"	"10:00-22:00"	"10:00-22:00"	"10:00-22:00"	"10:00-22:00"	"10:00-22:00"	100	40.594050352	288	50.0	 2	 0	20	 72.0	MATCHED
"Yelp"	"A Hot Rock Sauna Spa"	"8791 Woodbine Avenue, Unit 206"	"Markham"	"ON"	"L3R 0P4"	""	"43.855728"	"-79.358229"	"Beauty & Spas, Health & Medical, Skin Care, Reflexology, Massage"	"9056049337, +19056049337"	"10:0-22:0"	"10:0-22:0"	"10:0-22:0"	"10:0-22:0"	"10:0-22:0"	"10:0-22:0"	"10:0-22:0"	  0	 0.000000000	288	 0.0	 0	 0	 0	  0.0	
"Google"	"Coextro"	"1445 Bonhill Rd #9"	"Mississauga"	"ON"	"L5T"	"Canada"	"43.6604611"	"-79.6529297"	"point_of_interest, establishment"	"+16476937686"	"9:00 AM – 7:00 PM"	"9:00 AM – 7:00 PM"	"9:00 AM – 7:00 PM"	"9:00 AM – 7:00 PM"	"9:00 AM – 7:00 PM"	"10:00 AM – 6:00 PM"	"10:00 AM – 6:00 PM"	100	26.410586238	295	50.0	10	10	 0	 70.0	MATCHED
"Facebook"	"Coextro"	"1445 Bonhill Road, Unit 9"	"Mississauga"	"ON"	"L5T 1V3"	"Canada"	"43.66075"	"-79.65215"	"Internet Service Provider, Telecommunication Company"	"885529516"	"09:00-19:00"	"09:00-19:00"	"09:00-19:00"	"09:00-19:00"	"09:00-19:00"	"10:00-18:00"	"10:00-18:00"	100	45.818251841	295	50.0	 2	 0	20	 72.0	MATCHED
"Yelp"	"Coextro"	"1445 Bonhill Road, Unit 9"	"Mississauga"	"ON"	"L5T 1V3"	""	"43.6606244"	"-79.6526918"	"Internet Service Providers, Home Services, Professional Services"	"6476937686, +16476937686"	"9:0-19:0"	"9:0-19:0"	"9:0-19:0"	"9:0-19:0"	"9:0-19:0"	"10:0-18:0"	"9:0-19:0"	  0	 0.000000000	295	 0.0	 0	 0	 0	  0.0	
"Google"	"St. Louis Bar & Grill"	"55 Town Centre Court #101"	"Scarborough"	"ON"	"M1P"	"Canada"	"43.7741462"	"-79.2537815"	"nightlife, restaurants"	"+14168499418"	"11:00 AM – 1:00 AM"	"11:00 AM – 1:00 AM"	"11:00 AM – 1:00 AM"	"11:00 AM – 1:00 AM"	"11:00 AM – 2:00 AM"	"11:00 AM – 2:00 AM"	"11:00 AM – 1:00 AM"	100	42.282729082	302	50.0	 2	10	20	 82.0	MATCHED
"Facebook"	"St. Louis Bar & Grill"	"55 Town Centre Court - Unit 101"	"Toronto"	"ON"	"M1P 4X4"	"Canada"	"43.7739"	"-79.25415"	"Sports Bar, Canadian Restaurant, Bar & Grill"	"14168499418"	"11:00-01:00"	"11:00-01:00"	"11:00-01:00"	"11:00-01:00"	"11:00-02:00"	"11:00-02:00"	"11:00-01:00"	100	 2.493826510	302	50.0	20	 0	20	 90.0	MATCHED
"Yelp"	"St. Louis Bar & Grill"	"55 Town Centre Court, Unit 101"	"Scarborough"	"ON"	"M1P 4X4"	""	"43.7738991"	"-79.254181"	"Nightlife, Sports Bars, Bars, Chicken Wings, American (Traditional), Restaurants"	"4168499418, +14168499418"	"11:0-1:0"	"11:0-1:0"	"11:0-1:0"	"11:0-1:0"	"11:0-2:0"	"11:0-2:0"	"11:0-1:0"	  0	 0.000000000	302	 0.0	 0	 0	 0	  0.0	
"Google"	"Pink Lotus Nails"	"4770 Blue Diamond Rd #150"	"Las Vegas"	"NV"	"89139"	"USA"	"36.0352696"	"-115.2058151"	"beautysvc"	"+17023618008"	"9:00 AM – 7:00 PM"	"9:00 AM – 7:00 PM"	"9:00 AM – 7:00 PM"	"9:00 AM – 7:00 PM"	"9:00 AM – 7:00 PM"	"9:00 AM – 7:00 PM"	"10:00 AM – 5:00 PM"	100	53.221566434	324	50.0	 0	10	20	 80.0	MATCHED
"Facebook"	"Pink Lotus Nails"	"4770 Blue Diamond Rd, Ste 150"	"Las Vegas"	"NV"	"89139"	"United States"	"36.035216198"	"-115.205796175"	"Nail Salon, Barber Shop"	"7023618008"	"09:00-19:00"	"09:00-19:00"	"09:00-19:00"	"09:00-19:00"	"09:00-19:00"	"09:00-19:00"	"10:00-17:00"	100	49.608933742	324	50.0	 2	10	20	 82.0	MATCHED
"Yelp"	"Pink Lotus Nails"	"4770 Blue Diamond Rd, Ste 150"	"Las Vegas"	"NV"	"89139"	""	"36.0350866"	"-115.2052689"	"Beauty & Spas, Nail Salons"	"7023618008, +17023618008"	"9:0-19:0"	"9:0-19:0"	"9:0-19:0"	"9:0-19:0"	"9:0-19:0"	"9:0-19:0"	"9:0-19:0"	  0	 0.000000000	324	 0.0	 0	 0	 0	  0.0	
"Google"	"Potbelly Sandwich Shop"	"4620 Piedmont Row Dr #140"	"Charlotte"	"NC"	"28210"	"USA"	"35.1526381"	"-80.8403015"	"shopping, restaurants"	"+17049008159"	"10:30 AM – 9:00 PM"	"10:30 AM – 9:00 PM"	"10:30 AM – 9:00 PM"	"10:30 AM – 9:00 PM"	"10:30 AM – 9:00 PM"	"11:00 AM – 6:00 PM"	"11:00 AM – 6:00 PM"	 98	17.312203436	325	49.0	15	10	20	 94.0	MATCHED
"Facebook"	"Potbelly Sandwich Shop"	"4620 Piedmont Row Drive, Suite 140"	"Charlotte"	"NC"	"28210"	"United States"	"35.15269"	"-80.839966"	"Sandwich Shop, American Restaurant, Fast Food Restaurant"	"7049008159"	"10:30-21:00"	"10:30-21:00"	"10:30-21:00"	"10:30-21:00"	"10:30-21:00"	"11:00-18:00"	"11:00-18:00"	 98	30.110610984	325	49.0	 5	10	20	 84.0	MATCHED
"Yelp"	"Potbellly Sandwich Shop"	"4620 Piedmont Row Dr., Suite 140"	"Charlotte"	"NC"	"28210"	""	"35.1527918"	"-80.8402725"	"Salad, Restaurants, Fast Food, Soup, Sandwiches"	"7049008159, +17049008159"	"10:30-21:0"	"10:30-21:0"	"10:30-21:0"	"10:30-21:0"	"10:30-21:0"	"10:30-21:0"	"10:30-21:0"	  0	 0.000000000	325	 0.0	 0	 0	 0	  0.0	
"Google"	"Aces Bar & Grill LLC"	"7272 S El Capitan Way"	"Las Vegas"	"NV"	"89148"	"USA"	"36.0556641"	"-115.287911"	"nightlife, restaurants"	"+17025793330"	"Open 24 hours"	"Open 24 hours"	"Open 24 hours"	"Open 24 hours"	"Open 24 hours"	"Open 24 hours"	"Open 24 hours"	 88	 3.142903066	335	44.0	20	10	20	 94.0	MATCHED
"Facebook"	"Aces Bar and Grill"	"7272 S El Capitan Way"	"Las Vegas"	"NV"	"89148"	"United States"	"36.05604"	"-115.28778"	"Sports Bar, Bar & Grill, American Restaurant"	"7025793330"	""	""	""	""	""	""	""	 88	41.632271476	335	44.0	 2	10	20	 76.0	MATCHED
"Yelp"	"Aces Bar & Grill"	"7272 S El Capitan Way, Ste 2"	"Las Vegas"	"NV"	"89148"	""	"36.0556746017"	"-115.287878583"	"Bars, Sports Bars, Food, Specialty Food, Nightlife"	"7025793330, +17025793330"	"0:0-0:0"	"0:0-0:0"	"0:0-0:0"	"0:0-0:0"	"0:0-0:0"	"0:0-0:0"	"0:0-0:0"	  0	 0.000000000	335	 0.0	 0	 0	 0	  0.0	
"Google"	"Moneytree"	"1175 E Charleston Blvd"	"Las Vegas"	"NV"	"89104"	"USA"	"36.1595739"	"-115.1370607"	"financialservices"	"+17023846669"	"7:00 AM – 11:00 PM"	"7:00 AM – 11:00 PM"	"7:00 AM – 11:00 PM"	"7:00 AM – 11:00 PM"	"7:00 AM – 11:00 PM"	"7:00 AM – 11:00 PM"	"7:00 AM – 11:00 PM"	100	 2.000841118	347	50.0	20	10	20	100.0	MATCHED
"Facebook"	"Moneytree, Inc."	"1175 E. Charleston Blvd.,"	"Las Vegas"	"NV"	"89104"	"United States"	"36.159130025"	"-115.137194202"	"Loan Service, Cash Advance Service"	"7023846669"	""	""	""	""	""	""	""	 82	49.419808051	347	41.0	 2	10	20	 73.0	MATCHED
"Yelp"	"Moneytree"	"1175 E Charleston Blvd"	"Las Vegas"	"NV"	"89104"	""	"36.1595583365"	"-115.137049564"	"Title Loans, Check Cashing/Pay-day Loans, Financial Services, Installment Loans"	"7023846669, +17023846669"	"7:0-23:0"	"7:0-23:0"	"7:0-23:0"	"7:0-23:0"	"7:0-23:0"	"7:0-23:0"	"7:0-23:0"	  0	 0.000000000	347	 0.0	 0	 0	 0	  0.0	
"Google"	"Enterprise Rent-A-Car"	"10421 S Tryon St"	"Charlotte"	"NC"	"28273"	"USA"	"35.1193039"	"-80.9516703"	"hotelstravel"	"+17045871058"	"7:30 AM – 5:30 PM"	"7:30 AM – 5:30 PM"	"7:30 AM – 5:30 PM"	"7:30 AM – 5:30 PM"	"7:30 AM – 5:30 PM"	"8:00 AM – 12:00 PM"	"Closed"	100	73.381864038	349	50.0	-5	10	20	 75.0	MATCHED
"Facebook"	"Enterprise Rent-A-Car"	"10421 S Tryon St"	"Charlotte"	"NC"	"28273"	"United States"	"35.11930392645"	"-80.951670348677"	"Car Rental"	"7045871058"	"07:30-17:30"	"07:30-17:30"	"07:30-17:30"	"07:30-17:30"	"07:30-17:30"	"08:00-12:00"	"NA-NA"	100	73.376857087	349	50.0	-5	10	20	 75.0	MATCHED
"Yelp"	"Enterprise Rent-A-Car"	"10421 S Tryon St"	"Charlotte"	"NC"	"28273"	""	"35.119833"	"-80.952151"	"Hotels & Travel, Car Rental"	"7045871058, +17045871058"	"7:30-17:30"	"7:30-17:30"	"7:30-17:30"	"7:30-17:30"	"8:0-12:0"	"8:0-12:0"	"7:30-17:30"	  0	 0.000000000	349	 0.0	 0	 0	 0	  0.0	
"Google"	"BelAir Cantina Madison"	"111 Martin Luther King Jr Blvd"	"Madison"	"WI"	"53703"	"USA"	"43.0738063"	"-89.3826584"	"restaurants"	"+16086206040"	"11:00 AM – 10:00 PM"	"11:00 AM – 10:00 PM"	"11:00 AM – 10:00 PM"	"11:00 AM – 10:00 PM"	"11:00 AM – 11:00 PM"	"10:00 AM – 11:00 PM"	"10:00 AM – 10:00 PM"	 78	32.892733051	365	39.0	 5	10	20	 74.0	MATCHED
"Facebook"	"BelAir Cantina"	"111 MARTIN LUTHER KING JR. BLVD."	"Madison"	"WI"	"53703"	"United States"	"43.0738"	"-89.3824"	"Mexican Restaurant"	"6086206040"	"11:00-22:00"	"11:00-22:00"	"11:00-22:00"	"11:00-22:00"	"11:00-23:00"	"10:00-23:00"	"10:00-22:00"	100	11.869032050	365	50.0	15	10	20	 95.0	MATCHED
"Yelp"	"Belair Cantina"	"111 Martin Luther King Jr Blvd"	"Madison"	"WI"	"53703"	""	"43.0737969"	"-89.3822541"	"Restaurants, Latin American, Bars, Nightlife, Mexican"	"6086206040, +16086206040"	"11:0-23:0"	"11:0-23:0"	"11:0-23:0"	"11:0-23:0"	"11:0-23:0"	"10:0-23:0"	"11:0-23:0"	  0	 0.000000000	365	 0.0	 0	 0	 0	  0.0	
"Google"	"Structube"	"111 Avenue Rd"	"Toronto"	"ON"	"M5R"	"Canada"	"43.6732741"	"-79.3958081"	"shopping, shopping, shopping"	"+14169278252"	"10:00 AM – 9:00 PM"	"10:00 AM – 9:00 PM"	"10:00 AM – 9:00 PM"	"10:00 AM – 9:00 PM"	"10:00 AM – 9:00 PM"	"10:00 AM – 6:00 PM"	"10:00 AM – 5:00 PM"	100	31.515379766	366	50.0	 5	10	20	 85.0	MATCHED
"Facebook"	"Structube"	"111 Avenue Road"	"Toronto"	"ON"	"M5R 3J8"	"Canada"	"43.673270909916"	"-79.395774006844"	"Furniture Store"	"14169278252"	"10:00-21:00"	"10:00-21:00"	"10:00-21:00"	"10:00-21:00"	"10:00-21:00"	"10:00-18:00"	"10:00-17:00"	100	28.779908813	366	50.0	10	 0	20	 80.0	MATCHED
"Yelp"	"Structube"	"111 Avenue Rd"	"Toronto"	"ON"	"M5R 3J8"	""	"43.6731972"	"-79.3954314"	"Shopping, Home & Garden, Office Equipment, Furniture Stores"	"4169278252, +14169278252"	"10:0-18:0"	"10:0-18:0"	"10:0-18:0"	"10:0-21:0"	"10:0-21:0"	"10:0-18:0"	"10:0-18:0"	  0	 0.000000000	366	 0.0	 0	 0	 0	  0.0	
"Google"	"Ori’Zaba’s Scratch Mexican Grill at Downtown Summerlin"	"11015 Sage Park Dr"	"Las Vegas"	"NV"	"89135"	"USA"	"36.1481479"	"-115.3338948"	"restaurants"	"+17029014333"	"10:30 AM – 9:00 PM"	"10:30 AM – 9:00 PM"	"10:30 AM – 9:00 PM"	"10:30 AM – 9:00 PM"	"10:30 AM – 9:00 PM"	"10:30 AM – 9:00 PM"	"11:00 AM – 8:00 PM"	 64	29.285955167	410	32.0	10	10	20	 72.0	MATCHED
"Facebook"	"Ori’Zaba's Scratch Mexican Grill"	"11015 Sage Park Dr"	"Las Vegas"	"NV"	"89135"	"United States"	"36.1481651"	"-115.3340595"	"Mexican Restaurant"	"7029014333"	"10:30-21:00"	"10:30-21:00"	"10:30-21:00"	"10:30-21:00"	"10:30-21:00"	"10:30-21:00"	"11:00-20:00"	 86	42.931406125	410	43.0	 2	10	20	 75.0	MATCHED
"Yelp"	"Ori'Zaba's Scratch Mexican Grill"	"11015 Sage Park Dr, Ste 120"	"Las Vegas"	"NV"	"89135"	""	"36.1482461131"	"-115.333592556"	"Vegetarian, Restaurants, Mexican, Gluten-Free"	"7029014333, +17029014333"	"10:30-21:0"	"10:30-21:0"	"10:30-21:0"	"10:30-21:0"	"10:30-21:0"	"10:30-21:0"	"10:30-21:0"	  0	 0.000000000	410	 0.0	 0	 0	 0	  0.0	
"Google"	"Bevo Bar + Pizzeria"	"410 Rue Saint Vincent"	"Montréal"	"QC"	"H2Y"	"Canada"	"45.5070202"	"-73.5532857"	"nightlife, restaurants"	"+15148615039"	"4:00 PM – 12:00 AM"	"4:00 PM – 12:00 AM"	"4:00 PM – 12:00 AM"	"4:00 PM – 12:00 AM"	"4:00 PM – 2:00 AM"	"4:00 PM – 2:00 AM"	"4:00 PM – 12:00 AM"	100	30.721901800	438	50.0	 5	10	20	 85.0	MATCHED
"Facebook"	"BEVO Bar + Pizzeria"	"410, rue Saint-Vincent"	"Montreal"	"QC"	"H2Y 3A5"	"Canada"	"45.50696"	"-73.55324"	"Italian Restaurant, Pizza Place, Pub"	"148615039"	"16:00-00:00"	"16:00-00:00"	"16:00-00:00"	"16:00-00:00"	"16:00-02:00"	"16:00-02:00"	"16:00-00:00"	100	38.056767202	438	50.0	 5	 0	20	 75.0	MATCHED
"Yelp"	"BEVO Bar + Pizzeria"	"410 Rue Saint Vincent"	"Montréal"	"QC"	"H2Y 3A6"	""	"45.5072165"	"-73.5535625"	"Nightlife, Restaurants, Pizza, Italian, Bars"	"5148615039, +15148615039"	"16:0-23:0"	"16:0-23:0"	"16:0-23:0"	"16:0-2:0"	"16:0-2:0"	"12:0-2:0"	"16:0-23:0"	  0	 0.000000000	438	 0.0	 0	 0	 0	  0.0	
"Google"	"Bed Bath & Beyond"	"4275 Lien Rd"	"Madison"	"WI"	"53704"	"USA"	"43.1189115"	"-89.3084085"	"shopping, shopping, shopping"	"+16082443408"	"9:00 AM – 9:00 PM"	"9:00 AM – 9:00 PM"	"9:00 AM – 9:00 PM"	"9:00 AM – 9:00 PM"	"9:00 AM – 9:00 PM"	"9:00 AM – 9:00 PM"	"10:00 AM – 7:00 PM"	100	27.958990509	462	50.0	10	10	20	 90.0	MATCHED
"Facebook"	"Bed Bath & Beyond"	"4275 Lien Road"	"Madison"	"WI"	"53704"	"United States"	"43.118880185448"	"-89.308346807957"	"Department Store, Wedding Planning Service, Gift Shop, Appliances, Home Decor, Home Improvement, Mattress Store"	"6082443408"	"09:00-21:00"	"09:00-21:00"	"09:00-21:00"	"09:00-21:00"	"09:00-21:00"	"09:00-21:00"	"10:00-19:00"	100	31.456140246	462	50.0	 5	10	20	 85.0	MATCHED
"Yelp"	"Bed Bath & Beyond"	"4275 Lien Rd"	"Madison"	"WI"	"53704"	""	"43.1191617588"	"-89.3083793795"	"Shopping, Department Stores, Fashion"	"6082443408, +16082443408"	"9:0-21:0"	"9:0-21:0"	"9:0-21:0"	"9:0-21:0"	"9:0-21:0"	"9:0-21:0"	"9:0-21:0"	  0	 0.000000000	462	 0.0	 0	 0	 0	  0.0	
"Google"	"Get N Go"	"10611 S Eastern Ave"	"Henderson"	"NV"	"89052"	"USA"	"35.9986219"	"-115.1046777"	"food, shopping"	""	""	""	""	""	""	""	""	100	35.535455223	463	50.0	 5	 0	20	 75.0	MATCHED
"Facebook"	"Get N Go"	"10611 S. Eastern"	"Henderson"	"NV"	"89052"	"United States"	"35.99846"	"-115.10442"	"Convenience Store"	"7026170120"	""	""	""	""	""	""	""	100	 9.061042666	463	50.0	20	10	20	100.0	MATCHED
"Yelp"	"Get N Go"	"10611 S Eastern"	"Henderson"	"NV"	"89052"	""	"35.9984819"	"-115.1043231"	"Convenience Stores, Automotive, Car Wash, Food, Gas Stations"	"7026170120, +17026170120"	"0:0-0:0"	"0:0-0:0"	"0:0-0:0"	"0:0-0:0"	"0:0-0:0"	"0:0-0:0"	"0:0-0:0"	  0	 0.000000000	463	 0.0	 0	 0	 0	  0.0	
"Google"	"Culinary Dropout"	"4455 Paradise Rd"	"Las Vegas"	"NV"	"89169"	"USA"	"36.1093067"	"-115.1544731"	"nightlife, restaurants"	"+17025228100"	"11:00 AM – 11:00 PM"	"11:00 AM – 11:00 PM"	"11:00 AM – 11:00 PM"	"11:00 AM – 11:00 PM"	"11:00 AM – 12:00 AM"	"10:00 AM – 12:00 AM"	"10:00 AM – 11:00 PM"	100	 0.497367462	475	50.0	20	10	20	100.0	MATCHED
"Facebook"	"Culinary Dropout"	"4455 Paradise Rd."	"Las Vegas"	"NV"	"89169"	"United States"	"36.10972"	"-115.15389"	"American Restaurant, Bar"	"7025228100"	"11:00-23:00"	"11:00-23:00"	"11:00-23:00"	"11:00-23:00"	"11:00-00:00"	"10:00-00:00"	"10:00-23:00"	100	69.826145639	475	50.0	-5	10	20	 75.0	MATCHED
"Yelp"	"Culinary Dropout"	"4455 Paradise Rd"	"Las Vegas"	"NV"	"89169"	""	"36.109303"	"-115.15447"	"Venues & Event Spaces, Nightlife, Bars, Fondue, Restaurants, American (New), Event Planning & Services"	"7025228100, +17025228100"	"11:0-23:0"	"11:0-23:0"	"11:0-23:0"	"11:0-23:0"	"11:0-0:0"	"10:0-0:0"	"11:0-23:0"	  0	 0.000000000	475	 0.0	 0	 0	 0	  0.0	
"Google"	"Anthology"	"230 State St"	"Madison"	"WI"	"53703"	"USA"	"43.074957"	"-89.3893901"	"shopping"	"+16082042644"	"11:00 AM – 7:00 PM"	"11:00 AM – 7:00 PM"	"11:00 AM – 7:00 PM"	"11:00 AM – 7:00 PM"	"11:00 AM – 7:00 PM"	"10:00 AM – 8:00 PM"	"12:00 – 5:00 PM"	100	46.533977144	478	50.0	 2	10	20	 82.0	MATCHED
"Facebook"	"Anthology"	"230 State St"	"Madison"	"WI"	"53703"	"United States"	"43.07497"	"-89.38929"	"Arts & Crafts Store, Gift Shop"	"6082042644"	"10:00-18:00"	"10:00-18:00"	"10:00-18:00"	"10:00-18:00"	"10:00-18:00"	"10:00-18:00"	"11:00-17:00"	100	38.450542155	478	50.0	 5	10	20	 85.0	MATCHED
"Yelp"	"Anthology"	"218 State St"	"Madison"	"WI"	"53703"	""	"43.0749504"	"-89.3888179"	"Shopping, Event Planning & Services, Cards & Stationery, Arts & Crafts, Flowers & Gifts"	"6082042644, +16082042644"	"11:0-19:0"	"11:0-19:0"	"11:0-19:0"	"11:0-19:0"	"11:0-19:0"	"11:0-19:0"	"11:0-19:0"	  0	 0.000000000	478	 0.0	 0	 0	 0	  0.0	
